---
# Example with explanation
#  -
#    name: "Essen"  #==> city name
#    key: "essen"   #==> key that is used for the url
#    city_name_in_postcode_file: "Essen" #==> Name of city in /scripts/.opendata/PLZ.tab file
#    map_latitude: 51.4507657 # ==> http://www.gpskoordinaten.de
#    map_longitude: 7.0139047 # ==> http://www.gpskoordinaten.de
#    map_zoomlevel: 13        # ==> http://www.gpskoordinaten.de
#
#
  -
    name: "Essen"
    key: "essen"
    city_name_in_postcode_file: "Essen"
    map_latitude: 51.4507657
    map_longitude: 7.0139047
    map_zoomlevel: 13
  -
    name: "Bochum"
    key: "bochum"
    city_name_in_postcode_file: "Bochum"
    map_latitude: 51.4818445
    map_longitude: 7.216236299999991
    map_zoomlevel: 13
  -
    name: "Dortmund"
    key: "dortmund"
    city_name_in_postcode_file: "Dortmund"
    map_latitude: 51.5172138
    map_longitude: 7.4594456
    map_zoomlevel: 13
  -
    name: "Duisburg"
    key: "duisburg"
    city_name_in_postcode_file: "Duisburg"
    map_latitude: 51.4293898
    map_longitude: 6.7770832
    map_zoomlevel: 13
  -
    name: "Herne"
    key: "herne"
    city_name_in_postcode_file: "Herne"
    map_latitude: 51.544147
    map_longitude: 7.217556000000059
    map_zoomlevel: 13
  -
    name: "Gelsenkirchen"
    key: "gelsenkirchen"
    city_name_in_postcode_file: "Gelsenkirchen"
    map_latitude: 51.5049813
    map_longitude: 7.102084900000023
    map_zoomlevel: 13
